"poi_name","open_days","Total_hours","Rating","Total_Review","Index","id","lat","lon","type","city","city_id"
"Carnegie Centre Theatre",1,0.273684210526316,0.470588235294117,0.141828653707703,0.471525274882034,2292,"49.281052","-123.1001272","theatre/performance and concert hall","Vancouver",5915022
"Cineplex Odeon International Village Cinemas",1,0.568421052631579,0.176470588235294,1,0.686222910216718,2692,"49.280474","-123.106621","theatre/performance and concert hall","Vancouver",5915022
"Havana Theatre",1,0.736842105263158,0.529411764705882,0.419006479481641,0.671315087362671,4546,"49.2737114","-123.0694828","theatre/performance and concert hall","Vancouver",5915022
"Music Box Music And Theatre Academy",1,0.389473684210526,0.88235294117647,0.00503959683225342,0.569216555554813,6749,"49.20012164","-122.9116263","theatre/performance and concert hall","New Westminster",5915029
"Orpheum Theatre",1,0.715789473684211,0.823529411764706,0.673386129109671,0.803176253639647,7153,"49.279881","-123.12051","theatre/performance and concert hall","Vancouver",5915022
"Rickshaw Theatre",1,0.421052631578947,0.647058823529412,0.209503239740821,0.569403673712295,7806,"49.281272","-123.0983094","theatre/performance and concert hall","Vancouver",5915022
"Scotiabank Dance Centre - Faris Family Studio",1,0.473684210526316,0.764705882352941,0.0496760259179266,0.572016529699296,8165,"49.277065","-123.125711","theatre/performance and concert hall","Vancouver",5915022
"The Ironworks Studio",1,0.442857142857143,0.529411764705882,0.0110391168706503,0.495827006108419,8963,"49.284153","-123.099046","theatre/performance and concert hall","Vancouver",5915022
"Tom Lee Music Recital Hall",1,0.389473684210526,0.11764705882353,0.0499160067194624,0.38925918743838,9118,"49.2800125","-123.1224555","theatre/performance and concert hall","Vancouver",5915022
"Vancity Theatre",1,0.715789473684211,0.764705882352941,0.11231101511879,0.648201592788985,9336,"49.276974","-123.124732","theatre/performance and concert hall","Vancouver",5915022
"Wise Club Hall",1,1,0.705882352941177,0.0599952003839693,0.691469388331286,9694,"49.2772414","-123.0660915","theatre/performance and concert hall","Vancouver",5915022
"Art Club/Bard On Beach Production Centre Theatre",0.75,0.531578947368421,0.705882352941177,0.0436765058795296,0.507784451547282,395,"49.270223","-123.108576","theatre/performance and concert hall","Vancouver",5915022
"Arts Club Theatre - Granville Island Stage",0.75,0.652631578947368,0.705882352941177,0.0530357571394288,0.540387422256993,489,"49.272124","-123.134362","theatre/performance and concert hall","Vancouver",5915022
"Arts Club Theatre - Revue Stage",0.75,0.652631578947368,0.705882352941177,0.0530357571394288,0.540387422256993,490,"49.272235","-123.13467","theatre/performance and concert hall","Vancouver",5915022
"Arts Club Theatre - Stanley Industrial Alliance Stage",0.75,0.542105263157895,0.764705882352941,0.150707943364531,0.551879772218842,491,"49.261346","-123.1382118","theatre/performance and concert hall","Vancouver",5915022
"Cbc Studio 700",0.75,0.452631578947368,0.470588235294117,0.0268778497720182,0.425024416003376,2335,"49.279079","-123.114496","theatre/performance and concert hall","Vancouver",5915022
"Improv Centre",0.75,0.810526315789474,0.823529411764706,0.0381569474442045,0.605553168749596,4857,"49.270764","-123.136248","theatre/performance and concert hall","Vancouver",5915022
"Royal City Youth Ballet",0.75,0.126315789473684,1,0,0.469078947368421,7955,"49.20406694","-122.9069895","theatre/performance and concert hall","New Westminster",5915029
"Royal Principal Ballet Academy Ltd",0.75,0.726315789473684,1,0,0.619078947368421,7967,"..","..","theatre/performance and concert hall","New Westminster",5915029
"St James Community Square",0.75,0.210526315789474,0.588235294117647,0.0208783297336213,0.392409984910185,8476,"49.2630518","-123.1765215","theatre/performance and concert hall","Vancouver",5915022
"Stagecoach Theatre Arts School",0.75,0.189473684210526,0.647058823529412,0.00143988480921526,0.396993098137288,8565,"49.0876119","-122.5894912","theatre/performance and concert hall","Langley",5915001
"Chapel Arts",0.5,0.252631578947368,0.647058823529412,0.0031197504199664,0.350702538224187,2592,"49.2821671","-123.0953265","theatre/performance and concert hall","Vancouver",5915022
"Firehall Arts Centre",0.5,0.173684210526316,0.588235294117647,0.041036717062635,0.325739055426649,3774,"49.282083","-123.097921","theatre/performance and concert hall","Vancouver",5915022
"Roy Barnett Recital Hall",0.5,0.252631578947368,0.764705882352941,0.00359971202303816,0.380234293330837,7933,"49.267411","-123.256613","theatre/performance and concert hall","Greater Vancouver A",5915020
"Royal City Musical Theatre Company",0.5,0.147368421052632,0.235294117647059,0.00119990400767939,0.220965610676842,7954,"49.21480078","-122.9272501","theatre/performance and concert hall","New Westminster",5915029
"Pacific Theatre",0.25,0,0.764705882352941,0.0280777537796976,0.26069590903316,7236,"49.2607195","-123.1372216","theatre/performance and concert hall","Vancouver",5915022
"Studio Theatre At Surrey Arts Centre",0.25,0.447368421052632,0.647058823529412,0.108951283897288,0.363344632119833,8676,"49.16239448","-122.8420413","theatre/performance and concert hall","Surrey",5915004
"Western Front - Luxe Hall",0.25,0.505263157894737,0.764705882352941,0.00671946244300456,0.381672125672671,9581,"49.263894","-123.098716","theatre/performance and concert hall","Vancouver",5915022
"Vogue Theatre",0,0.0421052631578947,0.588235294117647,0.387329013678906,0.254417392738612,9442,"49.2799671","-123.1218259","theatre/performance and concert hall","Vancouver",5915022
"Anza Club (Australia-New Zealand Association)",0.732758620689655,0.442857142857143,0.658994032395567,0.1150760113104,0.487421451813191,318,"49.263974","-123.105108","theatre/performance and concert hall","Vancouver",5915022
"Astorino's Hall",0.732758620689655,0.442857142857143,0,0.00167986561075114,0.294323907289387,532,"49.2769146","-123.0698555","theatre/performance and concert hall","Vancouver",5915022
"Capilano College Performing Arts Theatre",0.732758620689655,0.442857142857143,0.705882352941177,0.0163186945044396,0.474454202748104,2243,"49.31615035","-123.0202274","theatre/performance and concert hall","North Vancouver",5915046
"Centennial Theatre",0.732758620689655,0.442857142857143,0.529411764705882,0.089752819774418,0.448695087006775,2355,"49.33075439","-123.0715514","theatre/performance and concert hall","North Vancouver",5915051
"Chan Centre For the Performing Art - Concert Hall",0.732758620689655,0.442857142857143,0.823529411764706,0.230861531077514,0.557501676597254,2586,"49.269523","-123.255108","theatre/performance and concert hall","Greater Vancouver A",5915020
"Deep Cove Shaw Theatre",0.732758620689655,0.442857142857143,0.823529411764706,0.00575953923686105,0.501226178637091,3080,"49.32698715","-122.9500893","theatre/performance and concert hall","North Vancouver",5915046
"Delphi Custom Theatres Inc",0.732758620689655,0.442857142857143,0.658994032395567,0.1150760113104,0.487421451813191,3094,"49.06830874","-122.6597014","theatre/performance and concert hall","Langley",5915001
"Djavad Mowafaghian Cinema",0.732758620689655,0.442857142857143,0.588235294117647,0.00791936645068395,0.442942606028782,3135,"49.282364","-123.108528","theatre/performance and concert hall","Vancouver",5915022
"Dorothy Somerset Studio Theatre",0.732758620689655,0.442857142857143,0.411764705882353,0.00287976961843053,0.397565059761895,3171,"49.2643788","-123.2543722","theatre/performance and concert hall","Greater Vancouver A",5915020
"Famous Players Limited Partnership (Theatre)",0.732758620689655,0.442857142857143,0.470588235294117,0.988720902327814,0.658731225292182,3541,"49.16790012","-122.6652397","theatre/performance and concert hall","Langley",5915001
"Fanclub",0.732758620689655,0.442857142857143,0.658994032395567,0.1150760113104,0.487421451813191,3542,"49.2784977","-123.1235587","theatre/performance and concert hall","Vancouver",5915022
"Fei & Milton Wong Experimental Theatre",0.732758620689655,0.442857142857143,0.588235294117647,0.00791936645068395,0.442942606028782,3561,"49.282402","-123.10859","theatre/performance and concert hall","Vancouver",5915022
"Fortune Sound Club",0.732758620689655,0.442857142857143,0.294117647058823,0.0599952003839693,0.382432152747398,3920,"49.2806621","-123.1008605","theatre/performance and concert hall","Vancouver",5915022
"Frederic Wood Theatre",0.732758620689655,0.442857142857143,0.764705882352941,0.017518598512119,0.489460061102965,3979,"49.268215","-123.2572691","theatre/performance and concert hall","Greater Vancouver A",5915020
"Heidi Zolty",0.732758620689655,0.442857142857143,1,0.000479961603071754,0.544023931287467,4584,"49.28073617","-123.0019167","theatre/performance and concert hall","Burnaby",5915025
"Hendry Hall Theatre",0.732758620689655,0.442857142857143,0.658994032395567,0.1150760113104,0.487421451813191,4592,"49.31728509","-123.0514318","theatre/performance and concert hall","North Vancouver",5915046
"Jericho Arts Centre",0.732758620689655,0.442857142857143,0.588235294117647,0.00887928965682745,0.443182586830318,4970,"49.272369","-123.202893","theatre/performance and concert hall","Vancouver",5915022
"Kw Atrium Studio",0.732758620689655,0.442857142857143,1,0,0.543903940886699,5237,"49.282766","-123.1076","theatre/performance and concert hall","Vancouver",5915022
"Laura C. Muir Performing Arts Theatre",0.732758620689655,0.442857142857143,0.294117647058823,0.000719942404607631,0.367613338252557,5420,"49.20354979","-122.9128583","theatre/performance and concert hall","New Westminster",5915029
"Malkin Bowl",0.732758620689655,0.442857142857143,0.705882352941177,0.0475161987041037,0.48225357879802,5905,"49.298848","-123.133438","theatre/performance and concert hall","Vancouver",5915022
"Margo Prentice, Golden Age Theatre, Artistic Director",0.732758620689655,0.442857142857143,0.658994032395567,0.1150760113104,0.487421451813191,5955,"49.19899662","-122.9210936","theatre/performance and concert hall","New Westminster",5915029
"Massey Theatre",0.732758620689655,0.442857142857143,0.529411764705882,0.101751859851212,0.451694847025973,6017,"49.21515471","-122.9268431","theatre/performance and concert hall","New Westminster",5915029
"Massey Theatre Society",0.732758620689655,0.442857142857143,0.529411764705882,0.101751859851212,0.451694847025973,6019,"..","..","theatre/performance and concert hall","New Westminster",5915029
"Metro Theatre",0.732758620689655,0.442857142857143,0.588235294117647,0.0232781377489801,0.446782298853356,6147,"49.20363","-123.1375815","theatre/performance and concert hall","Vancouver",5915022
"Norman Rothstein Theatre",0.732758620689655,0.442857142857143,0.529411764705882,0.0189584833213343,0.430996502893504,6954,"49.233433","-123.126011","theatre/performance and concert hall","Vancouver",5915022
"Old Auditorium",0.732758620689655,0.442857142857143,1,0.000239980801535877,0.543963936087083,7077,"49.266904","-123.255994","theatre/performance and concert hall","Greater Vancouver A",5915020
"Orpheum Annex",0.732758620689655,0.442857142857143,0.705882352941177,0.0283177345812335,0.477453962767302,7152,"49.2803528","-123.1194108","theatre/performance and concert hall","Vancouver",5915022
"Pacific Cinémathèque",0.732758620689655,0.442857142857143,0.705882352941177,0.0643148548116151,0.486453242824897,7232,"49.278552","-123.12627","theatre/performance and concert hall","Vancouver",5915022
"Pal Studio Theatre",0.732758620689655,0.442857142857143,0.705882352941177,0.0122390208783297,0.473434284341576,7239,"49.2913154","-123.1295134","theatre/performance and concert hall","Vancouver",5915022
"Performance Works",0.732758620689655,0.442857142857143,0.647058823529412,0.0475161987041037,0.467547696445078,7345,"49.269212","-123.132002","theatre/performance and concert hall","Vancouver",5915022
"Queen Elizabeth Theatre",0.732758620689655,0.442857142857143,0.705882352941177,0.87952963762899,0.690256938529241,7641,"49.28046","-123.113401","theatre/performance and concert hall","Vancouver",5915022
"Rio Theatre",0.732758620689655,0.442857142857143,0.764705882352941,0.401247900167987,0.585392386516931,7821,"49.2620042","-123.0704852","theatre/performance and concert hall","Vancouver",5915022
"Shadows & Dreams Theatre Company",0.732758620689655,0.442857142857143,0.658994032395567,0.1150760113104,0.487421451813191,8223,"49.21725034","-122.9100848","theatre/performance and concert hall","New Westminster",5915029
"Surrey Little Theatre",0.732758620689655,0.442857142857143,0.764705882352941,0.0105591552675786,0.487720200291829,8718,"49.13005476","-122.7128784","theatre/performance and concert hall","Surrey",5915004
"The Act Arts Centre & Theatre",0.732758620689655,0.442857142857143,0.764705882352941,0.0679145668346532,0.502059053183598,8911,"49.219156","-122.5983229","theatre/performance and concert hall","Maple Ridge",5915075
"The Bernie Legge Theatre",0.732758620689655,0.442857142857143,0.941176470588236,0.00215982721382289,0.529738015337214,8922,"49.21419488","-122.9031079","theatre/performance and concert hall","New Westminster",5915029
"The Michael J Fox Theatre Society",0.732758620689655,0.442857142857143,0.647058823529412,0.138708903287737,0.490345872590987,8976,"49.21649647","-122.9852237","theatre/performance and concert hall","Burnaby",5915025
"Twilight Drive-In Theatre Ltd",0.732758620689655,0.442857142857143,0.823529411764706,0.399088072954164,0.599558312066417,9208,"49.06243557","-122.5021659","theatre/performance and concert hall","Langley",5915001
"Vagabond Theatre/Fisheries Exibition Building",0.732758620689655,0.442857142857143,0.647058823529412,0.00959923206143509,0.458068454784411,9316,"49.21416596","-122.9031593","theatre/performance and concert hall","New Westminster",5915029
"Vancouver East Cultural Centre - Vancity Culture Lab",0.732758620689655,0.442857142857143,0.88235294117647,0.00167986561075114,0.514912142583505,9344,"49.276676","-123.065816","theatre/performance and concert hall","Vancouver",5915022
"Vancouver Playhouse Theatre",0.732758620689655,0.442857142857143,0.705882352941177,0.119750419966403,0.500312134113594,9357,"49.2808","-123.112328","theatre/performance and concert hall","Vancouver",5915022
"Vancouver Symphony Orchestra School of Music - Recital Hall (Pyatt Hall)",0.732758620689655,0.442857142857143,0.823529411764706,0.00191984641228702,0.500266255430948,9363,"49.280207","-123.119792","theatre/performance and concert hall","Vancouver",5915022
"Waterfront Theatre",0.732758620689655,0.442857142857143,0.705882352941177,0.0369570434365251,0.479613789981125,9505,"49.270119","-123.135508","theatre/performance and concert hall","Vancouver",5915022
"Woodward's Atrium",0.732758620689655,0.442857142857143,0.588235294117647,0.0256779457643389,0.447382250857196,9728,"49.282541","-123.107579","theatre/performance and concert hall","Vancouver",5915022
"York Theatre",0.732758620689655,0.442857142857143,0.705882352941177,0.0731941444684425,0.488673065239104,9766,"49.2786795","-123.0707458","theatre/performance and concert hall","Vancouver",5915022
"Yuk Yuk's Comedy Club",0.732758620689655,0.442857142857143,0.647058823529412,0.18742500599952,0.502524898268933,9780,"49.2600654","-123.1151069","theatre/performance and concert hall","Vancouver",5915022
"Arteclectica Gallery",1,0.473118279569892,0.571428571428572,0.00617813626222756,0.512681246815173,452,"49.17478795","-122.5857293","gallery","Langley",5915001
"Bau-Xi Gallery",1,0.510752688172043,0.571428571428572,0.00188776385790287,0.521017255864629,688,"49.258496","-123.1391799","gallery","Vancouver",5915022
"Charles H. Scott Gallery",1,0.32258064516129,0.714285714285714,0.000686459584691951,0.509388204757924,2610,"49.270485","-123.132876","gallery","Vancouver",5915022
"Circle Craft Co-Operative Shop & Gallery",1,0.491935483870968,0.428571428571429,0.00223099365024884,0.480684476523161,2694,"49.272369","-123.135541","gallery","Vancouver",5915022
"Coastal Peoples Fine Arts Gallery Gastown",1,0.548387096774194,0.571428571428572,0.00549167667753561,0.531326836220075,2781,"49.2843539","-123.109198","gallery","Vancouver",5915022
"Coastal Peoples Fine Arts Gallery Yaletown",1,0.548387096774194,0.571428571428572,0.00549167667753561,0.531326836220075,2782,"49.2762084","-123.119591","gallery","Vancouver",5915022
"Douglas Reynolds Gallery",1,0.516129032258065,1,0.00463360219667067,0.630190658613684,3183,"49.2648423","-123.1385998","gallery","Vancouver",5915022
"Emily Carr Institute of Art + Design 1612 Gallery",1,0.704301075268817,0.214285714285714,0.0185344087866827,0.484280299585304,3424,"49.2688004","-123.1411548","gallery","Vancouver",5915022
"Federation Gallery",1,0.397849462365591,1,0.00532006178136262,0.600792381036738,3560,"49.269582","-123.13225","gallery","Vancouver",5915022
"Havana Gallery",1,0.870967741935484,0.428571428571429,0.299639608718037,0.649794694806237,4545,"49.273662","-123.069421","gallery","Vancouver",5915022
"Ice Box Gallery",1,0.548387096774194,1,0,0.637096774193548,4833,"49.2846363","-123.097645","gallery","Vancouver",5915022
"Kizmit Gift Gallery Inc",1,0.559139784946237,0.928571428571429,0.0013729191693839,0.622271033171762,5214,"49.16982326","-122.5778897","gallery","Langley",5915001
"Lattimer Gallery",1,0.494623655913978,0.642857142857143,0.00926720439334134,0.536687000791116,5417,"49.2696829","-123.1406592","gallery","Vancouver",5915022
"Make Gallery",1,0.494623655913978,0.5,1,0.748655913978495,5900,"49.2646046","-123.0992862","gallery","Vancouver",5915022
"Malaspina Printmakers Gallery",1,0.32258064516129,0.928571428571429,0.00240260854642183,0.563388670569785,5904,"49.271369","-123.135784","gallery","Vancouver",5915022
"Remington Gallery And Studio",1,1,0.785714285714286,0.00102968937703793,0.696685993772831,7751,"49.281336","-123.1019396","gallery","Vancouver",5915022
"Skwachàys Lodge Gallery",1,0.924731182795699,0.5,0.00549167667753561,0.607555714868309,8332,"49.280978","-123.106127","gallery","Vancouver",5915022
"Vancouver Art Gallery",1,0.494623655913978,0.5,1,0.748655913978495,9339,"49.283158","-123.120932","gallery","Vancouver",5915022
"Vancouver Art Gallery Offsite",1,0.392823749415615,0.642857142857143,0.00377552771580573,0.509864104997141,9340,"49.286205","-123.124298","gallery","Vancouver",5915022
"Willowbrook Art Gallery",1,0.537634408602151,0.714285714285714,0.00617813626222756,0.564524564787523,9670,"49.11490646","-122.6757778","gallery","Langley",5915001
"Amelia Douglas Gallery",0.833333333333333,0.940860215053763,0.214285714285714,0.0489102454093015,0.509347377020528,268,"49.20354979","-122.9128583","gallery","New Westminster",5915029
"Bearga Gallery",0.833333333333333,0.333333333333333,1,0.000343229792345976,0.541752474114753,710,"49.17032581","-122.5773185","gallery","Langley",5915001
"Burnaby Art Gallery",0.833333333333333,0.333333333333333,0.571428571428572,0.00480521709284366,0.435725113797021,2015,"49.24092931","-122.9713007","gallery","Burnaby",5915025
"Craft Council of British Columbia Gallery",0.833333333333333,0.365591397849462,0.642857142857143,0.00446198730049768,0.461560965335109,2945,"49.269837","-123.13479","gallery","Vancouver",5915022
"Gallery-The Spa Ltd",0.833333333333333,0.462365591397849,0.714285714285714,0.0123562725244551,0.505585227885338,4194,"..","..","gallery","New Westminster",5915029
"Granville Island Gallery",0.833333333333333,0.333333333333333,0.642857142857143,0.00240260854642183,0.452981604517558,4369,"49.270213","-123.134769","gallery","Vancouver",5915022
"Heffel Gallery Ltd",0.833333333333333,0.451612903225806,0.142857142857143,0.00120130427321091,0.357251170922373,4583,"49.2654685","-123.1389124","gallery","Vancouver",5915022
"Inuit Gallery of Vancouver",0.833333333333333,0.462365591397849,0.714285714285714,0.00549167667753561,0.503869078923608,4891,"49.2842455","-123.1088083","gallery","Vancouver",5915022
"Jennifer Kostuik Gallery",0.833333333333333,0.408602150537634,0.142857142857143,0.00240260854642183,0.346798808818633,4968,"49.2766268","-123.1211143","gallery","Vancouver",5915022
"Kube Gallery",0.833333333333333,0.301075268817204,1,0.000343229792345976,0.533687957985721,5234,"49.17032581","-122.5773185","gallery","Langley",5915001
"Morris And Helen Belkin Art Gallery",0.833333333333333,0.354838709677419,0.571428571428572,0.0084091299124764,0.44200243608795,6316,"49.2683878","-123.255944","gallery","Greater Vancouver A",5915020
"Pendulum Gallery",0.833333333333333,0.580645161290323,0.428571428571429,0.00188776385790287,0.461109421763247,7334,"49.283709","-123.119963","gallery","Vancouver",5915022
"Richmond Art Gallery",0.833333333333333,0.440860215053763,0.642857142857143,0.0108117384588982,0.481965607425784,7797,"49.1641205","-123.1411334","gallery","Richmond",5915015
"Satellite Gallery",0.833333333333333,0.333333333333333,1,0,0.541666666666667,8119,"49.283183","-123.114585","gallery","Vancouver",5915022
"Spirit Wrestler Gallery",0.833333333333333,0.462365591397849,0.714285714285714,0.00549167667753561,0.503869078923608,8444,"49.2837331","-123.105348","gallery","Vancouver",5915022
"Vancouver Contemporary Art Gallery",0.833333333333333,0.333333333333333,0.214285714285714,0.0336365196499056,0.353647225150572,9342,"49.278238","-123.121183","gallery","Vancouver",5915022
"Architectural Institute of BC Gallery",0.666666666666667,0.403225806451613,0.714285714285714,0.00171614896172988,0.446473584091431,337,"49.2817199","-123.1095005","gallery","Vancouver",5915022
"Artspeak Gallery",0.666666666666667,0.21505376344086,0.428571428571429,0.000858074480864939,0.327787483289955,506,"49.282941","-123.104299","gallery","Vancouver",5915022
"Audain Gallery",0.666666666666667,0.247311827956989,0.428571428571429,0.000686459584691951,0.335809095694944,565,"49.282395","-123.108715","gallery","Vancouver",5915022
"Bill Reid Gallery",0.666666666666667,0.268817204301075,0.642857142857143,0.0459927921743607,0.406083451499811,1760,"49.284308","-123.119819","gallery","Vancouver",5915022
"Eagle Spirit Gallery",0.666666666666667,0.268817204301075,0.428571428571429,0.00411875750815171,0.342043514261831,3255,"49.2710507","-123.136077","gallery","Vancouver",5915022
"Equinox Gallery",0.666666666666667,0.32258064516129,0.571428571428572,0.0070362107430925,0.391928023499905,3451,"49.267609","-123.09226","gallery","Vancouver",5915022
"Evergreen Cultural Centre Society",0.666666666666667,0.21505376344086,0.642857142857143,0.0713917968079629,0.398992342443158,3506,"49.2853872","-122.7909589","gallery","Coquitlam",5915034
"Gallery Gachet",0.666666666666667,0.268817204301075,0.571428571428572,0.00223099365024884,0.377285859011641,4177,"49.2821","-123.102645","gallery","Vancouver",5915022
"Gallery Jones",0.666666666666667,0.301075268817204,0.857142857142857,0.00274583833876781,0.456907657741374,4180,"49.269727","-123.098623","gallery","Vancouver",5915022
"Gallery Jones",0.666666666666667,0.301075268817204,0.857142857142857,0.00274583833876781,0.456907657741374,4181,"49.2689012","-123.1438197","gallery","Vancouver",5915022
"Gallery Jones",0.666666666666667,0.301075268817204,0.857142857142857,0.00274583833876781,0.456907657741374,4180,"49.269727","-123.098623","gallery","Vancouver",5915022
"Gallery Jones",0.666666666666667,0.301075268817204,0.857142857142857,0.00274583833876781,0.456907657741374,4181,"49.2689012","-123.1438197","gallery","Vancouver",5915022
"Grunt Gallery",0.666666666666667,0.21505376344086,0.571428571428572,0.00257422344259482,0.363930806244673,4431,"49.26676","-123.09715","gallery","Vancouver",5915022
"Ian Tan Gallery",0.666666666666667,0.21505376344086,0.714285714285714,0.00223099365024884,0.399559284510872,4830,"49.2661646","-123.1383868","gallery","Vancouver",5915022
"Khot-La-Cha Art Gallery",0.666666666666667,0.392823749415615,0.285714285714286,0.000686459584691951,0.336472790345315,5147,"49.32265365","-123.1205984","gallery","Capilano 5",5915808
"Lobby Gallery",0.666666666666667,0.268817204301075,0.857142857142857,0.000514844688518963,0.448285393199779,5654,"49.267681","-123.259146","gallery","Greater Vancouver A",5915020
"Monte Clark Gallery",0.666666666666667,0.349462365591398,0.642857142857143,0.00257422344259482,0.415390099639451,6256,"49.26761","-123.0921743","gallery","Vancouver",5915022
"Or Gallery",0.666666666666667,0.21505376344086,0.571428571428572,0.00154453406555689,0.363673383900414,7138,"49.281406","-123.112094","gallery","Vancouver",5915022
"Peter Kiss Gallery",0.666666666666667,0.32258064516129,1,0.00102968937703793,0.497569250301249,7360,"49.2701374","-123.1337947","gallery","Vancouver",5915022
"Petley Jones Gallery",0.666666666666667,0.376344086021505,0.857142857142857,0.000514844688518963,0.475167113629887,7376,"49.2652275","-123.0917358","gallery","Vancouver",5915022
"Presentation House Gallery",0.666666666666667,0.376344086021505,0.428571428571429,0.0216234769177965,0.373301414544349,7564,"49.31545021","-123.080156","gallery","North Vancouver",5915051
"Sum Gallery",0.666666666666667,0.268817204301075,0.857142857142857,0.00120130427321091,0.448457008095952,8700,"49.279234","-123.098127","gallery","Vancouver",5915022
"The Fort Gallery",0.666666666666667,0.21505376344086,0.642857142857143,0.00171614896172988,0.3815734304816,8946,"49.16684947","-122.5811598","gallery","Langley",5915001
"The Polygon Gallery",0.666666666666667,0.354838709677419,0.571428571428572,0.0379268920542303,0.407715209956722,8997,"49.310375","-123.0805596","gallery","North Vancouver",5915051
"Winsor Gallery",0.666666666666667,0.301075268817204,0.857142857142857,0.00274583833876781,0.456907657741374,9690,"49.2689553","-123.0984496","gallery","Vancouver",5915022
"Chali-Rosso Gallery",0.5,0.204301075268817,0.642857142857143,0.0102968937703793,0.339363777974085,2574,"49.2657529","-123.1384021","gallery","Vancouver",5915022
"Gordon Smith Gallery of Canadian Art",0.5,0.161290322580645,0.714285714285714,0.00308906813111378,0.344666276249368,4310,"49.3387479","-123.0719629","gallery","North Vancouver",5915046
"Seymour Art Gallery",0.5,0.204301075268817,0.785714285714286,0.00326068302728677,0.373319011002597,8216,"49.32698259","-122.9502844","gallery","North Vancouver",5915046
"Surrey Art Gallery",0.5,0.575268817204301,0.571428571428572,0.0779131628625365,0.431152637873852,8717,"49.16239467","-122.8421785","gallery","Surrey",5915004
"The Art of Law Gallery",0.5,0.575268817204301,0.571428571428572,0.0779131628625365,0.431152637873852,8915,"49.20227237","-122.9105812","gallery","New Westminster",5915029
"Western Front - Gallery",0.5,0.634408602150538,0.714285714285714,0.00480521709284366,0.463374883382274,9580,"49.263916","-123.098654","gallery","Vancouver",5915022
"Back Gallery Project",0.333333333333333,0.043010752688172,0.714285714285714,0.00102968937703793,0.272914872421064,602,"49.2811369","-123.0913998","gallery","Vancouver",5915022
"Gabor Gasztonyi Studio & Gallery",0.333333333333333,0.188172043010753,0.857142857142857,0.0013729191693839,0.345005288164082,4023,"49.21008247","-122.9341905","gallery","New Westminster",5915029
"Simon Fraser Gallery",0.333333333333333,0.10752688172043,0,0.00102968937703793,0.1104724761077,8286,"49.2768784","-122.8667274","gallery","Port Moody",5915043
"Trench Gallery",0.333333333333333,0.43010752688172,0.428571428571429,0.00686459584691951,0.29971922115835,9171,"49.2839469","-123.1010921","gallery","Vancouver",5915022
"Dundarave Print Workshop & Gallery",0.166666666666667,0.032258064516129,0.642857142857143,0.000171614896172988,0.210488372234028,3235,"49.2721848","-123.1353489","gallery","Vancouver",5915022
"Catriona Jeffries Gallery",0,0,0.571428571428572,0.00240260854642183,0.143457794993748,2330,"49.2687198","-123.0980394","gallery","Vancouver",5915022
"Ahva Gallery",0.748826291079812,0.392823749415615,1,0,0.535412510123857,157,"49.2639124","-123.2549451","gallery","Greater Vancouver A",5915020
"Art Works Gallery",0.748826291079812,0.392823749415615,1,0,0.535412510123857,446,"49.2775077","-123.1165781","gallery","Vancouver",5915022
"Ayden Gallery",0.748826291079812,0.392823749415615,0.642857142857143,0.000171614896172988,0.446169699562186,594,"49.2809655","-123.1071802","gallery","Vancouver",5915022
"Bel Art Gallery",0.748826291079812,0.392823749415615,0.663149350649351,0.0344848432843971,0.459821058607294,738,"49.33747064","-123.1023904","gallery","North Vancouver",5915046
"Birthplace of BC Gallery",0.748826291079812,0.392823749415615,1,0,0.535412510123857,1795,"49.16712676","-122.5808057","gallery","Langley",5915001
"Canadian Society of Asian Arts",0.748826291079812,0.392823749415615,0.663149350649351,0.0344848432843971,0.459821058607294,2207,"49.217061","-123.1169866","gallery","Vancouver",5915022
"Doctor Vigari Gallery",0.748826291079812,0.392823749415615,0.785714285714286,0.000858074480864939,0.482055600172644,3140,"49.2683622","-123.0692806","gallery","Vancouver",5915022
"Douglas Udell Gallery",0.748826291079812,0.392823749415615,0.663149350649351,0.0344848432843971,0.459821058607294,3184,"49.2661804","-123.1399725","gallery","Vancouver",5915022
"Elissa Cristall Galleries",0.748826291079812,0.392823749415615,0.663149350649351,0.0344848432843971,0.459821058607294,3395,"49.2655257","-123.1385822","gallery","Vancouver",5915022
"Ferry Building Gallery",0.748826291079812,0.392823749415615,0.642857142857143,0.00600652136605457,0.447628426179656,3569,"49.32701461","-123.1578963","gallery","West Vancouver",5915055
"Film2Frame Studio Gallery",0.748826291079812,0.392823749415615,0.642857142857143,0.000171614896172988,0.446169699562186,3762,"49.20233668","-122.9086714","gallery","New Westminster",5915029
"Gallery 295",0.748826291079812,0.392823749415615,1,0,0.535412510123857,4167,"49.2680645","-123.0981191","gallery","Vancouver",5915022
"Gallery of BC Ceramics",0.748826291079812,0.392823749415615,0.0714285714285715,0.000343229792345976,0.303355460429086,4183,"49.270046","-123.134283","gallery","Vancouver",5915022
"Gam Gallery",0.748826291079812,0.392823749415615,0.857142857142857,0.00120130427321091,0.499998550477874,4198,"49.2813343","-123.101858","gallery","Vancouver",5915022
"Harrison Galleries",0.748826291079812,0.392823749415615,1,0.000343229792345976,0.535498317571943,4528,"49.2784569","-123.1184779","gallery","Vancouver",5915022
"Hatch Art Gallery",0.748826291079812,0.392823749415615,0.663149350649351,0.0344848432843971,0.459821058607294,4542,"49.266025","-123.249913","gallery","Greater Vancouver A",5915020
"Interurban Gallery",0.748826291079812,0.392823749415615,0.857142857142857,0.0013729191693839,0.500041454201917,4889,"49.2815282","-123.1043161","gallery","Vancouver",5915022
"James Black Gallery",0.748826291079812,0.392823749415615,0.928571428571429,0.0042903724043247,0.518627960367795,4944,"49.2652632","-123.1019214","gallery","Vancouver",5915022
"James Tan Gallery",0.748826291079812,0.392823749415615,0.663149350649351,0.0344848432843971,0.459821058607294,4948,"49.2810853","-123.1023067","gallery","Vancouver",5915022
"Labyrinth Gallery",0.748826291079812,0.392823749415615,0.663149350649351,0.0344848432843971,0.459821058607294,5329,"49.2810651","-123.1017894","gallery","Vancouver",5915022
"Little Mountain Gallery",0.748826291079812,0.392823749415615,0.857142857142857,0.0163034151364338,0.503774078193679,5638,"49.2480158","-123.1014023","gallery","Vancouver",5915022
"Maple Ridge And Pitt Meadows Arts Council",0.748826291079812,0.392823749415615,1,0,0.535412510123857,5941,"49.2190735","-122.6002259","gallery","Maple Ridge",5915075
"Marion Scott Gallery",0.748826291079812,0.392823749415615,0.663149350649351,0.0344848432843971,0.459821058607294,5967,"49.264079","-123.1386272","gallery","Vancouver",5915022
"On Main Gallery",0.748826291079812,0.392823749415615,0.663149350649351,0.0344848432843971,0.459821058607294,7108,"49.252773","-123.10056","gallery","Vancouver",5915022
"Plaskett Gallery",0.748826291079812,0.392823749415615,0.428571428571429,0.0727647159773468,0.410746546261051,7433,"49.21561134","-122.927494","gallery","New Westminster",5915029
"Teck Gallery",0.748826291079812,0.392823749415615,0.663149350649351,0.0344848432843971,0.459821058607294,8777,"49.2841655","-123.1119735","gallery","Vancouver",5915022
"Tracey Lawrence Gallery",0.748826291079812,0.392823749415615,0.663149350649351,0.0344848432843971,0.459821058607294,9153,"49.267975","-123.139461","gallery","Vancouver",5915022
"Van Dop Gallery",0.748826291079812,0.392823749415615,0.857142857142857,0.00171614896172988,0.500127261650003,9331,"49.23107737","-122.898803","gallery","New Westminster",5915029
"Maple Ridge Public Library",0.75,0.383561643835616,0.871794871794872,0.00316181345300627,0.502129582270874,5944,"49.22046","-122.600057","library or archives","Maple Ridge",5915075
"White Rock Library",0.75,0.383561643835616,0.794871794871795,0.00142791575297057,0.482465338615095,9622,"49.023902","-122.796236","library or archives","White Rock",5915007
"Bob Prittie Metrotown Branch",1,0.452054794520548,0.846153846153846,0.0157070732826763,0.578478928489268,1839,"49.228683","-123.006456","library or archives","Burnaby",5915025
"Bob Prittie Metrotown Library",1,0.452054794520548,0.846153846153846,0.0157070732826763,0.578478928489268,1840,"49.22815036","-123.0063797","library or archives","Burnaby",5915025
"Cameron",1,0.958904109589041,0.82051282051282,0.00254984955887603,0.695491694915184,2090,"49.253462","-122.899745","library or archives","Burnaby",5915025
"Cameron Library",1,0.452054794520548,0.717948717948718,0.00341679840889388,0.54335507771954,2093,"49.25381086","-122.8985944","library or archives","Burnaby",5915025
"Capilano",1,0.424657534246575,0.871794871794872,1,0.824113101510362,2241,"49.337232","-123.102372","library or archives","North Vancouver",5915046
"Central Branch",1,0.678082191780822,0.897435897435897,0.0546177775511245,0.657533966691961,2359,"49.2797","-123.1156","library or archives","Vancouver",5915022
"City Centre",1,0.671232876712329,0.743589743589744,0.400224386761181,0.703761751765813,2713,"49.19131","-122.849808","library or archives","Surrey",5915004
"City Centre Branch",1,0.712328767123288,0.743589743589744,0.00861849150900097,0.616134250555508,2714,"49.284268","-122.79557","library or archives","Coquitlam",5915034
"Coquitlam Public Library",1,0.684931506849315,0.871794871794872,0.00438574124126677,0.640278029971363,2880,"49.25344945","-122.8457007","library or archives","Coquitlam",5915034
"Dunbar",1,1,0.871794871794872,0.0218777092151563,0.723418145252507,3232,"49.246","-123.1856","library or archives","Vancouver",5915022
"Joe Fortes",1,0.808219178082192,0.871794871794872,0.215105308786782,0.723779839665961,4982,"49.2899","-123.1361","library or archives","Vancouver",5915022
"Mcgill",1,0.452054794520548,0.923076923076923,0.00576266000305982,0.595223594400133,6063,"49.218365","-122.953688","library or archives","Burnaby",5915025
"Mcgill Library",1,0.452054794520548,0.923076923076923,0.00576266000305982,0.595223594400133,6064,"49.28269051","-123.0006236","library or archives","Burnaby",5915025
"New Westminster Public Library",1,0.452054794520548,0.794871794871795,0.00591565097659238,0.563210560092234,6886,"49.21167222","-122.9223783","library or archives","New Westminster",5915029
"New Westminster Public Library And Archives",1,0.452054794520548,0.794871794871795,0.00591565097659238,0.563210560092234,6888,"49.2195661","-122.908408","library or archives","New Westminster",5915029
"Newton",1,0.808219178082192,0.846153846153846,0.00530368708246213,0.664919177829625,6900,"49.129975","-122.838988","library or archives","Surrey",5915004
"North Vancouver City Library",1,0.671232876712329,0.897435897435897,0.00698658779132031,0.643913840484887,6988,"49.321066","-123.073542","library or archives","North Vancouver",5915051
"Parkgate",1,0.657534246575342,0.692307692307692,0.000152990973532562,0.587498732464142,7270,"49.318722","-122.969798","library or archives","North Vancouver",5915046
"Poirier Branch",1,0.684931506849315,0.871794871794872,0.00438574124126677,0.640278029971363,7472,"49.253185","-122.846541","library or archives","Coquitlam",5915034
"Renfrew Branch",1,0.684931506849315,0.846153846153846,0.00351879239124892,0.633651036348603,7755,"49.250885","-123.04287","library or archives","Vancouver",5915022
"Semiahmoo Library",1,0.808219178082192,0.871794871794872,0.00341679840889388,0.670857712071489,8202,"49.035002","-122.801187","library or archives","Surrey",5915004
"Terry Salman Branch",1,0.821917808219178,0.846153846153846,0.00142791575297057,0.667374892531499,8811,"49.254571","-123.107211","library or archives","Vancouver",5915022
"Tommy Douglas Branch",1,0.452054794520548,0.846153846153846,0.00566066602070478,0.575967326673775,9122,"49.281898","-123.000644","library or archives","Burnaby",5915025
"Tommy Douglas Library",1,0.452054794520548,0.846153846153846,0.00566066602070478,0.575967326673775,9123,"49.21875996","-122.95235","library or archives","Burnaby",5915025
"Vancouver Public Library",1,0.678082191780822,0.897435897435897,0.0546177775511245,0.657533966691961,9360,"49.2804357","-123.1151119","library or archives","Vancouver",5915022
"West Vancouver Memorial Library",1,0.527397260273973,0.897435897435897,0.00464072619715437,0.607368470976756,9567,"49.329034","-123.16538","library or archives","West Vancouver",5915055
"Aldergrove Library",0.75,0.383561643835616,0.974358974358974,0.000866948850017849,0.527196891761152,215,"49.055541","-122.481863","library or archives","Langley",5915001
"Brighouse (Main) Branch",0.75,0.383561643835616,0.871794871794872,0.00805752460604824,0.503353510059134,1930,"49.16293","-123.142625","library or archives","Richmond",5915015
"George Mackie Library",0.75,0.383561643835616,0.897435897435897,0.00280483451476363,0.508450593946569,4234,"49.156793","-122.912391","library or archives","Delta",5915011
"Hastings",0.75,0.602739726027397,0.871794871794872,0.00183589168239074,0.556592622376165,4537,"49.2809","-123.05","library or archives","Vancouver",5915022
"Ironwood Branch",0.75,0.246575342465753,0.743589743589744,0.00203987964710082,0.435551241425649,4905,"49.133322","-123.095352","library or archives","Richmond",5915015
"Ladner Pioneer Library",0.75,0.383561643835616,0.871794871794872,0.00158090672650314,0.501734355589248,5342,"49.087117","-123.08266","library or archives","Delta",5915011
"Langley City Library",0.75,0.383561643835616,0.846153846153846,0.00163190371768066,0.495336848426786,5394,"49.103549","-122.65676","library or archives","Langley",5915002
"Library Link",0.75,0.383561643835616,0.794871794871795,0.00260084655005355,0.482758571314366,5574,"49.284268","-122.79555","library or archives","Coquitlam",5915034
"Lynn Valley Main",0.75,0.452054794520548,0.846153846153846,0.00280483451476363,0.512753368797289,5739,"49.336693","-123.038858","library or archives","North Vancouver",5915046
"Muriel Arnason Library",0.75,0.383561643835616,0.692307692307692,0.000560966902952726,0.456607575761565,6382,"49.12069","-122.656765","library or archives","Langley",5915001
"Muriel Arnason Library (Willowbrook)",0.75,0.383561643835616,0.692307692307692,0.000560966902952726,0.456607575761565,6383,"49.12040314","-122.6587791","library or archives","Langley",5915001
"Murrayville Library",0.75,0.383561643835616,0.846153846153846,0.000407975929420164,0.495030866479721,6388,"49.08975896","-122.6119582","library or archives","Langley",5915001
"Neca?Mat Ct Strathcona Branch",0.75,0.575342465753425,0.846153846153846,0.00127492477943801,0.543192809171677,6831,"49.25454615","-123.1072302","library or archives","Vancouver",5915022
"Pitt Meadows Public Library",0.75,0.383561643835616,0.846153846153846,0.00163190371768066,0.495336848426786,7420,"49.221363","-122.68959","library or archives","Pitt Meadows",5915070
"Port Moody Public Library",0.75,0.321917808219178,0.897435897435897,0.00341679840889388,0.493192626015992,7514,"49.282312","-122.829572","library or archives","Port Moody",5915043
"Richmond Public Library",0.75,0.383561643835616,0.871794871794872,0.00805752460604824,0.503353510059134,7803,"49.1641205","-123.1411334","library or archives","Richmond",5915015
"South Hill",0.75,0.719178082191781,0.538461538461539,0.00142791575297057,0.502266884101572,8405,"49.2295","-123.0903","library or archives","Vancouver",5915022
"Steveston Branch",0.75,0.246575342465753,0.692307692307692,0.000764954867662808,0.422411997410277,8613,"49.125177","-123.178441","library or archives","Richmond",5915015
"Strathcona Branch",0.75,0.575342465753425,0.846153846153846,0.00127492477943801,0.543192809171677,8653,"49.280215","-123.091958","library or archives","Vancouver",5915022
"Terry Fox Library",0.75,0.383561643835616,0.794871794871795,0.00260084655005355,0.482758571314366,8809,"49.260305","-122.778532","library or archives","Port Coquitlam",5915039
"Tsawwassen Library",0.75,0.383561643835616,0.769230769230769,0.000407975929420164,0.475800097248951,9194,"49.026996","-123.068683","library or archives","Delta",5915011
"Walnut Grove Library",0.75,0.383561643835616,0.82051282051282,0.00122392778826049,0.488824598034174,9482,"49.163691","-122.640499","library or archives","Langley",5915001
"West Point Grey Branch",0.75,0.575342465753425,0.871794871794872,0.00091794584119537,0.549513820847373,9564,"49.26388","-123.20762","library or archives","Vancouver",5915022
"Accessible Services",0.5,0.267123287671233,1,0,0.441780821917808,115,"49.279222","-123.11624","library or archives","Vancouver",5915022
"Archives of Anglican Provincial Synod of British Columbia And Diocese of New Westminster",0.5,0.232876712328767,0.82051282051282,0.000458972920597685,0.388462126440546,358,"49.2476604","-123.1545938","library or archives","Vancouver",5915022
"British Columbia History of Nursing Society",0.5,0.301369863013699,0,0.00193788566474578,0.200826937169611,1942,"49.31993995","-122.8890636","library or archives","Port Moody",5915043
"Brookswood Library",0.5,0.226027397260274,1,0.000254984955887603,0.43157059555404,1964,"49.07501894","-122.6682286","library or archives","Langley",5915001
"Cambie Branch",0.5,0.164383561643836,0.769230769230769,0.00168290070885818,0.358824307895866,2087,"49.184558","-123.095055","library or archives","Richmond",5915015
"Capilano University Archives",0.5,0.36986301369863,1,0.000305981947065123,0.467542248911424,2244,"49.317592","-123.0210051","library or archives","North Vancouver",5915046
"Firehall Branch",0.5,0.356164383561644,0.871794871794872,0.00117293079708297,0.4322830465384,3775,"49.262674","-123.137671","library or archives","Vancouver",5915022
"Fort Langley Library",0.5,0.198630136986301,0.948717948717949,0.000611963894130246,0.411990012399595,3873,"49.169014","-122.579297","library or archives","Langley",5915001
"Outreach Services",0.5,0.232876712328767,0.846153846153846,0.00489571115304197,0.395981567408914,7212,"49.2797","-123.1156","library or archives","Vancouver",5915022
"University of British Columbia: Rare Books And Special Collections",0.5,0.164383561643836,1,0.000152990973532562,0.416134138154342,9270,"49.26761935","-123.252761","library or archives","Greater Vancouver A",5915020
"Bowen Island Public Library",0.25,0,0.871794871794872,0.000509969911775205,0.280576210426662,1886,"49.379668","-123.333937","library or archives","Bowen Island",5915062
"City of Richmond Archives",0.25,0.164383561643836,0.743589743589744,0,0.289493326308395,2721,"49.1641205","-123.1411334","library or archives","Richmond",5915015
"Cariboo Regional District Library System",0,0.410958904109589,1,0,0.352739726027397,2256,"..","..","library or archives","Bowen Island",5915062
"Britannia",0.78515625,0.467037671232877,0.827201783723523,0.0310882092739137,0.527620978557578,1936,"49.2756","-123.0738","library or archives","Vancouver",5915022
"Champlain Heights",0.78515625,0.467037671232877,0.827201783723523,0.0310882092739137,0.527620978557578,2581,"49.2191","-123.0402","library or archives","Vancouver",5915022
"Cloverdale",0.78515625,0.467037671232877,0.827201783723523,0.0310882092739137,0.527620978557578,2769,"49.107276","-122.760497","library or archives","Surrey",5915004
"Collingwood",0.78515625,0.467037671232877,0.827201783723523,0.0310882092739137,0.527620978557578,2823,"49.2362","-123.0426","library or archives","Vancouver",5915022
"Fleetwood",0.78515625,0.467037671232877,0.827201783723523,0.0310882092739137,0.527620978557578,3794,"49.155404","-122.779226","library or archives","Surrey",5915004
"Fraserview",0.78515625,0.467037671232877,0.827201783723523,0.0310882092739137,0.527620978557578,3973,"49.2197","-123.0669","library or archives","Vancouver",5915022
"Guildford",0.78515625,0.467037671232877,0.827201783723523,0.0310882092739137,0.527620978557578,4442,"49.193243","-122.803609","library or archives","Surrey",5915004
"Kensington",0.78515625,0.467037671232877,0.827201783723523,0.0310882092739137,0.527620978557578,5134,"49.2491","-123.0753","library or archives","Vancouver",5915022
"Kerrisdale",0.78515625,0.467037671232877,0.827201783723523,0.0310882092739137,0.527620978557578,5139,"49.2332","-123.1571","library or archives","Vancouver",5915022
"Kitsilano",0.78515625,0.467037671232877,0.827201783723523,0.0310882092739137,0.527620978557578,5212,"49.2647","-123.1687","library or archives","Vancouver",5915022
"Main Branch",0.78515625,0.467037671232877,0.41025641025641,0.00254984955887603,0.416250045262041,5792,"49.212106","-122.922293","library or archives","New Westminster",5915029
"Marpole",0.78515625,0.467037671232877,0.827201783723523,0.0310882092739137,0.527620978557578,5988,"49.2104","-123.14","library or archives","Vancouver",5915022
"Mount Pleasant",0.78515625,0.467037671232877,0.827201783723523,0.0310882092739137,0.527620978557578,6347,"49.2643","-123.1002","library or archives","Vancouver",5915022
"Oakridge Branch",0.78515625,0.467037671232877,0.794871794871795,0.0019888826559233,0.512263649690149,7038,"49.233625","-123.12042","library or archives","Vancouver",5915022
"Oblates of Mary Immaculate St. Paul's Province -Oblate Archives",0.78515625,0.467037671232877,0.827201783723523,0.0310882092739137,0.527620978557578,7046,"49.2556543","-123.1351444","library or archives","Vancouver",5915022
"Ocean Park",0.78515625,0.467037671232877,0.827201783723523,0.0310882092739137,0.527620978557578,7055,"49.033003","-122.8656","library or archives","Surrey",5915004
"Port Kells",0.78515625,0.467037671232877,0.827201783723523,0.0310882092739137,0.527620978557578,7511,"49.16281","-122.790169","library or archives","Surrey",5915004
"Queensborough",0.78515625,0.467037671232877,0.827201783723523,0.0310882092739137,0.527620978557578,7656,"49.186458","-122.945466","library or archives","New Westminster",5915029
"Société Historique Francophone De La Colombie-Britannique",0.78515625,0.467037671232877,0.827201783723523,0.0310882092739137,0.527620978557578,8371,"..","..","library or archives","Vancouver",5915022
"Strawberry Hill",0.78515625,0.467037671232877,0.794871794871795,0.212861441174971,0.56498178931991,8658,"49.136445","-122.884575","library or archives","Surrey",5915004
"United Church of Canada B.C. Conference Archives",0.78515625,0.467037671232877,1,0,0.563048480308219,9255,"49.2301609","-123.1260872","library or archives","Vancouver",5915022
"Vivo Media Arts Centre",0.78515625,0.467037671232877,0.897435897435897,0.00101993982355041,0.537662439623081,9441,"49.2847803","-123.0466984","library or archives","Vancouver",5915022
"221A Artist Run Centre",1,0.519230769230769,0.6875,0.000113224637681159,0.551710998467113,24,"49.278786","-123.098796","museum","Vancouver",5915022
"BC Farm Machinery & Agricultural Museum Association",1,0.326923076923077,0.6875,0.00826539855072464,0.50567211886845,696,"49.16829541","-122.57544","museum","Langley",5915001
"Bloedel Conservatory",1,0.377403846153846,0.75,0.505548007246377,0.658237963350056,1822,"49.242077","-123.113759","museum","Vancouver",5915022
"Canadian Lacrosse Hall of Fame & Museum",1,0.423076923076923,0.75,0.000452898550724638,0.543382455406912,2169,"49.2016302","-122.9117763","museum","New Westminster",5915029
"Granville Fine Arts",1,0.423076923076923,1,0.00113224637681159,0.606052292363434,4368,"49.2638926","-123.1386339","museum","Vancouver",5915022
"Port Moody Station Museum",1,0.394230769230769,0.6875,0.0123414855072464,0.523518063684504,7517,"49.27919001","-122.8507565","museum","Port Moody",5915043
"Science World At Telus World of Science",1,0.394230769230769,0.6875,1,0.770432692307692,8163,"49.273743","-123.103652","museum","Vancouver",5915022
"St. Roch National Historic Site C/O Vancouver Maritime Museum",1,0.423076923076923,0.875,0.00147192028985507,0.574887210841694,8553,"49.2762481","-123.1430717","museum","Vancouver",5915022
"Trillium North Park",1,1,0.5,0.0434782608695652,0.635869565217391,9181,"49.274169","-123.09379","museum","Vancouver",5915022
"Van Dusen Botanical Garden",1,0.394230769230769,0.75,0.785326086956522,0.732389214046823,9332,"49.238472","-123.128627","museum","Vancouver",5915022
"Vancouver Access Artist Run Centre",1,0.519230769230769,0.6875,0.000113224637681159,0.551710998467113,9337,"49.278453","-123.098757","museum","Vancouver",5915022
"Vancouver Biennale",1,0.394230769230769,0.875,0.00124547101449275,0.567619060061315,9341,"49.268419","-123.110397","museum","Vancouver",5915022
"BC Golf House Society",0.833333333333333,0.153846153846154,0.5625,0.00101902173913043,0.387674627229654,699,"49.2643712","-123.2154904","museum","Greater Vancouver A",5915020
"Beaty Biodiversity Museum",0.833333333333333,0.326923076923077,0.6875,0.0748414855072464,0.480649473940914,715,"49.2634318","-123.251485","museum","Greater Vancouver A",5915020
"Canadian Music Centre (BC Region)",0.833333333333333,0.461538461538462,0.75,0.00203804347826087,0.511727459587514,2196,"49.278055","-123.127484","museum","Vancouver",5915022
"Chinese Canadian Military Museum",0.833333333333333,0.326923076923077,0.4375,0.00883152173913043,0.401646982998885,2644,"49.2797742","-123.1023264","museum","Vancouver",5915022
"Chinese Cultural Centre Museum And Archives",0.833333333333333,0.326923076923077,0.4375,0.00883152173913043,0.401646982998885,2646,"49.279894","-123.102448","museum","Vancouver",5915022
"Field Contemporary",0.833333333333333,0.25,1,0,0.520833333333333,3756,"49.2630895","-123.1058083","museum","Vancouver",5915022
"Museum",0.833333333333333,0.153846153846154,0.5625,0.0113224637681159,0.390250487736901,6704,"49.02169224","-122.8074195","museum","White Rock",5915007
"Museum of Anthropology",0.833333333333333,0.326923076923077,0.8125,0.385529891304348,0.58957157539019,6709,"49.26946905","-123.2594145","museum","Greater Vancouver A",5915020
"Richmond Museum",0.833333333333333,0.365384615384615,1,0,0.549679487179487,7801,"49.1641205","-123.1411334","museum","Richmond",5915015
"UBC Museum of Anthropology",0.833333333333333,0.326923076923077,0.8125,0.385529891304348,0.58957157539019,9219,"49.26907","-123.259174","museum","Greater Vancouver A",5915020
"White Rock Museum And Archives",0.833333333333333,0.153846153846154,0.5625,0.0113224637681159,0.390250487736901,9623,"49.0221917","-122.8086382","museum","White Rock",5915007
"12 Service Battalion Museum",0.666666666666667,0.264423076923077,1,0.000792572463768116,0.482970579013378,10,"49.1763542","-123.112783","museum","Richmond",5915015
"Alliance For Arts And Culture",0.666666666666667,0.307692307692308,0.875,0.000792572463768116,0.462537886705686,254,"49.2803099","-123.1228359","museum","Vancouver",5915022
"Anvil Centre/Museum And Archives",0.666666666666667,0.259615384615385,0.5625,0.00803894927536232,0.374205250139353,317,"49.20177737","-122.911292","museum","New Westminster",5915029
"Artstarts In Schools",0.666666666666667,0.235576923076923,0.375,0.000226449275362319,0.319367509754738,507,"49.2799985","-123.1179808","museum","Vancouver",5915022
"Baf Studio",0.666666666666667,0.163461538461538,0.75,0.00135869565217391,0.395371725195095,607,"49.262669","-123.102505","museum","Vancouver",5915022
"Bowen Island Museum And Archives",0.666666666666667,0.115384615384615,0.3125,0.000679347826086957,0.273807657469342,1885,"49.387838","-123.3325302","museum","Bowen Island",5915062
"Canadian Museum Flight Association",0.666666666666667,0.201923076923077,0.75,0.0249094202898551,0.4108747909699,2180,"49.09920599","-122.6260122","museum","Langley",5915001
"Canadian Museum of Flight Association",0.666666666666667,0.201923076923077,0.75,0.0249094202898551,0.4108747909699,2185,"..","..","museum","Langley",5915001
"City of Vancouver Archives",0.666666666666667,0.307692307692308,0.5625,0.00192481884057971,0.384695948299888,2725,"49.276084","-123.142663","museum","Vancouver",5915022
"Coquitlam Heritage Society Operating Mackin House",0.666666666666667,0.211538461538462,0.6875,0.00328351449275362,0.39224716067447,2879,"49.2385727","-122.8619326","museum","Coquitlam",5915034
"H.R. Macmillan Space Centre",0.666666666666667,0.355769230769231,0.1875,0.0295516304347826,0.30987188196767,4454,"49.276361","-123.144299","museum","Vancouver",5915022
"Hot Art Wet City",0.666666666666667,0.307692307692308,0.5625,0.00294384057971014,0.384950703734671,4783,"49.2653981","-123.1007282","museum","Vancouver",5915022
"Il Museo",0.666666666666667,0.307692307692308,0.5625,0.0272871376811594,0.391036528010033,4839,"49.256761","-123.049576","museum","Vancouver",5915022
"Kits Point Military History Museum",0.666666666666667,0.259615384615385,0.5625,0.0592164855072464,0.386999634197324,5210,"49.08699895","-123.0776064","museum","Delta",5915011
"Langley Centennial Museum",0.666666666666667,0.115384615384615,0.625,0.0158514492753623,0.355725682831661,5392,"49.1666277","-122.5767672","museum","Langley",5915001
"Museum of Vancouver",0.666666666666667,0.259615384615385,0.5625,0.0592164855072464,0.386999634197324,6739,"49.276365","-123.144897","museum","Vancouver",5915022
"National Nikkei Museum - Heritage Centre",0.666666666666667,0.259615384615385,0.625,0.0704257246376812,0.405426943979933,6813,"49.21776635","-122.964558","museum","Burnaby",5915025
"New Westminster Museum & Archives",0.666666666666667,0.259615384615385,0.5625,0.00803894927536232,0.374205250139353,6885,"49.2078392","-122.9063479","museum","New Westminster",5915029
"Pacific Museum of Earth",0.666666666666667,0.259615384615385,0.625,0.0129076086956522,0.391047414994426,7234,"49.2624508","-123.2523425","museum","Greater Vancouver A",5915020
"Simon Fraser University Museum of Archaeology & Ethnology",0.666666666666667,0.163461538461538,0.5625,0.00713315217391304,0.349940339325529,8288,"49.2768784","-122.8667274","museum","Port Moody",5915043
"UBC Botanical Garden",0.666666666666667,0.259615384615385,0.6875,0.105865036231884,0.429911771878484,9218,"49.2538228","-123.2473213","museum","Greater Vancouver A",5915020
"Uno Langmann Limited Fine Arts",0.666666666666667,0.211538461538462,0.8125,0.00203804347826087,0.423185792920847,9297,"49.2666423","-123.1388698","museum","Vancouver",5915022
"Vancouver Holocaust Education Centre",0.666666666666667,0.298076923076923,0.125,0.00169836956521739,0.272860489827202,9348,"49.233442","-123.126013","museum","Vancouver",5915022
"Vancouver Island University Museum of Natural History",0.666666666666667,0.259615384615385,0.375,0,0.325320512820513,9353,"..","..","museum","Vancouver",5915022
"Wil Aballe Art Projects",0.666666666666667,0.163461538461538,0.5625,0.00101902173913043,0.348411806716834,9644,"49.2794145","-123.0757838","museum","Vancouver",5915022
"Lynn Valley Heritage Museum And Archives",0.5,0.365384615384615,0.375,0.000226449275362319,0.310152766164994,5738,"49.33827349","-123.0372858","museum","North Vancouver",5915046
"Museum of Surrey",0.5,0.192307692307692,0.6875,0.0472146739130435,0.356755591555184,6734,"49.10459322","-122.7322494","museum","Surrey",5915004
"North Vancouver Museum & Archives",0.5,0.365384615384615,0.375,0.000226449275362319,0.310152766164994,6991,"49.3380126","-123.0366339","museum","North Vancouver",5915046
"Vancouver Maritime Museum",0.5,0.192307692307692,0.625,0.0211730072463768,0.334620174888517,9355,"49.277465","-123.147587","museum","Vancouver",5915022
"West Vancouver Museum",0.5,0.0769230769230769,1,0.000226449275362319,0.39428738154961,9569,"49.3335234","-123.1601822","museum","West Vancouver",5915055
"West Vancouver Museum And Archives",0.5,0.0769230769230769,1,0.000226449275362319,0.39428738154961,9570,"49.33068623","-123.1640427","museum","West Vancouver",5915055
"Centre A - Centre For Contemporary Asian Art",0.333333333333333,0.0961538461538462,0.5625,0.00135869565217391,0.248336468784838,2377,"49.280067","-123.098181","museum","Vancouver",5915022
"Maple Ridge Museum",0.333333333333333,0.355769230769231,0.5,0.00452898550724638,0.298407887402453,5942,"49.21037198","-122.5975721","museum","Maple Ridge",5915075
"Pitt Meadows Museum",0.333333333333333,0.163461538461538,0.5,0.00113224637681159,0.249481779542921,7419,"49.2649397","-122.6892698","museum","Pitt Meadows",5915070
"Roedde House",0.333333333333333,0.355769230769231,0.6875,0.0193614130434783,0.348990994286511,7879,"49.286863","-123.132187","museum","Vancouver",5915022
"Dr. Sun Yat-Sen Classical Chinese Garden",0.166666666666667,0.0192307692307692,0.5,0.439764492753623,0.281415482162765,3202,"49.279983","-123.104168","museum","Vancouver",5915022
"Hastings Mill Store Museum",0.166666666666667,0.211538461538462,0.75,0.00634057971014493,0.283636426978818,4541,"49.272817","-123.185988","museum","Vancouver",5915022
"Historical Museum",0.166666666666667,0,0.8125,0.00328351449275362,0.245612545289855,4745,"49.20762944","-122.9062113","museum","New Westminster",5915029
"Stanley Park Nature House",0.166666666666667,0.0384615384615385,0.8125,0.0108695652173913,0.257124442586399,8570,"49.294408","-123.137914","museum","Vancouver",5915022
"The Royal Westminster Regiment Museum",0.166666666666667,0,0.8125,0.00328351449275362,0.245612545289855,9013,"49.20713369","-122.9119034","museum","New Westminster",5915029
"15th Field Artillery Regiment Museum And Archives",0,0.0673076923076923,1,0.000339673913043478,0.266911841555184,15,"49.261938","-123.151123","museum","Vancouver",5915022
"Gms Observatory",0,0.0769230769230769,0.3125,0.0030570652173913,0.0981200355351171,4288,"49.276261","-123.144436","museum","Vancouver",5915022
"Art Beatus",0.661538461538462,0.268084319526627,0.643895348837209,0.0598102565722952,0.408332096618648,394,"49.2800409","-123.1249139","museum","Vancouver",5915022
"Art Emporium",0.661538461538462,0.268084319526627,1,0.000113224637681159,0.482434001425692,397,"49.2593906","-123.1383072","museum","Vancouver",5915022
"Basic Inquiry",0.661538461538462,0.268084319526627,1,0.000566123188405797,0.482547226063374,669,"49.2758184","-123.1000334","museum","Vancouver",5915022
"BC Regiment (Duke of Connaught's Own) Museum",0.661538461538462,0.268084319526627,0.875,0.000792572463768116,0.451353838382214,701,"49.27937945","-123.1107111","museum","Vancouver",5915022
"BC Sports Hall of Fame Museum",0.661538461538462,0.268084319526627,0.5625,0.0122282608695652,0.376087760483663,703,"49.27619","-123.110438","museum","Vancouver",5915022
"Bill Reid Centre For Northwest Coast Studies At Simon Fraser University",0.661538461538462,0.268084319526627,0.4375,0.0685009057971015,0.358905921715548,1759,"49.2799979","-122.9156806","museum","Burnaby",5915025
"Burnaby Village Museum",0.661538461538462,0.268084319526627,0.75,0.245244565217391,0.48121683657062,2017,"49.2394477","-122.9672589","museum","Burnaby",5915025
"Colbourne House/ Marpole Museum",0.661538461538462,0.268084319526627,0.643895348837209,0.0598102565722952,0.408332096618648,2800,"49.2064788","-123.1423354","museum","Vancouver",5915022
"Delta Museum And Archives Society",0.661538461538462,0.268084319526627,0,0.000452898550724638,0.232518919903953,3096,"49.09240685","-123.0868134","museum","Delta",5915011
"Dynamo Arts Association",0.661538461538462,0.268084319526627,0.8125,0.000226449275362319,0.435587307585113,3251,"49.2653017","-123.1040486","museum","Vancouver",5915022
"Hill's Native Art",0.661538461538462,0.268084319526627,0.643895348837209,0.0598102565722952,0.408332096618648,4722,"49.2844721","-123.1081528","museum","Vancouver",5915022
"Lynn Canyon Ecology Centre",0.661538461538462,0.268084319526627,0.8125,0.458786231884058,0.550227253237287,5735,"49.3432489","-123.0187218","museum","North Vancouver",5915046
"Museum Annex",0.661538461538462,0.268084319526627,0,0.000452898550724638,0.232518919903953,6705,"49.16781256","-122.5751332","museum","Langley",5915001
"Museum of Original Costume The",0.661538461538462,0.268084319526627,0.643895348837209,0.0598102565722952,0.408332096618648,6731,"49.25732755","-123.1366058","museum","Vancouver",5915022
"Port Coquitlam Heritage & Cultural Society",0.661538461538462,0.268084319526627,0.6875,0.00181159420289855,0.404733593816997,7497,"..","..","museum","Coquitlam",5915034
"Rennie Collection At Wing Sang",0.661538461538462,0.268084319526627,0.6875,0.00690670289855072,0.40600737099091,7756,"49.2806995","-123.1031317","museum","Vancouver",5915022
"Samson V Maritime Museum",0.661538461538462,0.268084319526627,0.625,0.00226449275362319,0.389221818454678,8095,"49.2009132","-122.9278272","museum","New Westminster",5915029
"Samson V Museum",0.661538461538462,0.268084319526627,0.625,0.00226449275362319,0.389221818454678,8096,"49.19955079","-122.9117624","museum","New Westminster",5915029
"Seaforth Highlanders of Canada Regimental Museum And Archives",0.661538461538462,0.268084319526627,0.875,0.00101902173913043,0.451410450701055,8182,"49.27113215","-123.1448866","museum","Vancouver",5915022
"Steveston Museum And Visitor Centre",0.661538461538462,0.268084319526627,0.625,0.00147192028985507,0.389023675338736,8614,"49.1253077","-123.182869","museum","Richmond",5915015
"Surrey Museum & Archives",0.661538461538462,0.268084319526627,0.625,0.00735960144927536,0.390495595628591,8719,"49.1049308","-122.7318198","museum","Surrey",5915004
"The Apartment",0.661538461538462,0.268084319526627,0.375,0.000226449275362319,0.326212307585113,8913,"49.2804859","-123.1015866","museum","Vancouver",5915022
"Underwater Archaeological Society of British Columbia",0.661538461538462,0.268084319526627,0.643895348837209,0.0598102565722952,0.408332096618648,9244,"49.277482","-123.1477655","museum","Vancouver",5915022
"Unit/Pitt Projects",0.661538461538462,0.268084319526627,0.643895348837209,0.0598102565722952,0.408332096618648,9252,"49.280103","-123.098813","museum","Vancouver",5915022
"University of Bc: Charles Woodward Memorial Room",0.661538461538462,0.268084319526627,0.25,0.000792572463768116,0.295103838382214,9269,"49.2645689","-123.2476074","museum","Greater Vancouver A",5915020
"Vancouver Naval Museum",0.661538461538462,0.268084319526627,0.75,0.00464221014492754,0.421066247802504,9356,"49.2949211","-123.1485038","museum","Vancouver",5915022
"Vancouver Police Museum",0.661538461538462,0.268084319526627,0.5,0.0460824275362319,0.36892630215033,9359,"49.282247","-123.0987999","museum","Vancouver",5915022
